[{
	"lat": 40.6700095,
	"lon": -74.0129394,
	"name": "IKEA Pier A"
},
{
	"lat": 40.685055,
	"lon": -74.010817,
	"name": "Pier 10"
},
{
	"lat": 40.682139,
	"lon": -74.015452,
	"name": "Pier 12"
},
{
	"lat": 40.678301,
	"lon": -74.019500,
	"name": "Pier 39/Valentino"
},
{
	"lat": 40.676500,
	"lon": -74.020000,
	"name": "Pier 41"
},
{
	"lat": 40.672268,
	"lon": -74.018966,
	"name": "Beard Street Pier"
},
{
	"lat": 40.6752,
	"lon": -74.01835,
	"name": "<span style='text-shadow:initial;display:block;white-space:normal;padding:2px 2px 5px 2px;background:darkblue;border-radius:5px;font-size:140%;width:75%;text-align:center;'><a href='/tours/show/9' title='Resiliency' style='color:wheat;'>Resiliency: flood prep</a></span>"
}
]