[{
	"lat": 40.6700095,
	"lon": -74.0129394,
	"name": "IKEA Pier A"
}, 
{
	"lat": 40.678301,
	"lon": -74.019500,
	"name": "Pier 39/Valentino"
},
{
	"lat": 40.676500,
	"lon": -74.019000,
	"name": "Pier 41"
},
{
	"lat": 40.672400,
	"lon": -74.019400,
	"name": "Beard Street Pier"
},
{
	"lat": 40.677500,
	"lon": -74.022900,
	"name": "<span style='text-shadow:initial;display:block;white-space:normal;padding:2px;color:darkblue;background:burlywood;font-size:145%;width:75%;text-align:center;'><a href='/tours/show/9' title='Resiliency'>Click for Resiliency: Flood Prep</a></span>"
}
]